Timestamp,Roll,Pitch,Yaw,Roll Rate,Pitch Rate,Yaw Rate,GPS Fix,GPS Lat,GPS Lon,GPS Alt,GPS Sats,GPS HDOP,GPS Speed,Global Lat,Global Lon,Global Alt,Relative Alt,Vel N,Vel E,Vel D,Heading,Airspeed,Groundspeed,Altitude,Climb,Throttle,Voltage,Current,Battery %,CPU Load,Armed,Mode,EKF Vel,EKF Pos H,EKF Pos V,EKF Compass,EKF Flags,Vib X,Vib Y,Vib Z,Baro Press,Baro Temp,Local X,Local Y,Local Z,Accel X,Accel Y,Accel Z,Gyro X,Gyro Y,Gyro Z,Mag X,Mag Y,Mag Z,Wind Dir,Wind Speed,Charging Status
2026-04-03 17:18:54,3.01,-0.15,54.94,,,,,0.0,0.0,,,,,,,,,,,,54,0.0,0.0,0.03,0.01,0,0.682,0.13,0,,False,0,,,,,,0.02473314478993416,0.033427644520998,0.03967180475592613,908.4663696289062,36.4,,,,,,,,,,,,,,,Unknown
2026-04-03 17:18:55,3.01,-0.15,54.94,,,,,0.0,0.0,,,,,,,,,,,,54,0.0,0.0,-0.03,0.01,0,0.68,0.13,0,,False,0,,,,,,0.02650742419064045,0.034069303423166275,0.03657011315226555,908.4737548828125,36.4,,,,,,,,,,,,,,,Unknown
2026-04-03 17:18:55,3.01,-0.15,54.94,,,,,0.0,0.0,,,,,,,,,,,,54,0.0,0.0,0.05,0.01,0,0.68,0.12,0,,False,0,,,,,,0.025050561875104904,0.027711300179362297,0.03226441890001297,908.4654541015625,36.4,,,,,,,,,,,,,,,Unknown
2026-04-03 17:18:55,3.01,-0.15,54.93,,,,,0.0,0.0,,,,,,,,,,,,54,0.0,0.0,-0.09,0.0,0,0.678,0.13,0,,False,0,,,,,,0.024177882820367813,0.030215108767151833,0.03594071418046951,908.4793701171875,36.4,,,,,,,,,,,,,,,Unknown
2026-04-03 17:18:55,3.03,-0.12,54.93,,,,,0.0,0.0,,,,,,,,,,,,54,0.0,0.0,0.02,0.0,0,0.682,0.13,0,,False,0,,,,,,0.031990308314561844,0.039728716015815735,0.035966940224170685,908.46826171875,36.4,,,,,,,,,,,,,,,Unknown
2026-04-03 17:18:55,3.02,-0.13,54.91,,,,,0.0,0.0,,,,,,,,,,,,54,0.0,0.0,0.05,0.0,0,0.682,0.13,0,,False,0,,,,,,0.03007858246564865,0.03423444181680679,0.029394838958978653,908.4654541015625,36.4,,,,,,,,,,,,,,,Unknown
2026-04-03 17:18:56,3.03,-0.13,54.91,,,,,0.0,0.0,,,,,,,,,,,,54,0.0,0.0,0.17,0.0,0,0.677,0.13,0,,False,0,,,,,,0.024344133213162422,0.03082287311553955,0.031219610944390297,908.4524536132812,36.4,,,,,,,,,,,,,,,Unknown
2026-04-03 17:18:56,3.02,-0.13,54.91,,,,,0.0,0.0,,,,,,,,,,,,54,0.0,0.0,-0.14,0.0,0,0.68,0.13,0,,False,0,,,,,,0.021575599908828735,0.023780765011906624,0.032353710383176804,908.4844970703125,36.4,,,,,,,,,,,,,,,Unknown
2026-04-03 17:18:56,3.02,-0.13,54.91,,,,,0.0,0.0,,,,,,,,,,,,54,0.0,0.01,0.3,0.0,0,0.678,0.13,0,,False,0,,,,,,0.02224893867969513,0.02234564907848835,0.034933436661958694,908.4395751953125,36.4,,,,,,,,,,,,,,,Unknown
2026-04-03 17:18:56,3.02,-0.13,54.9,,,,,0.0,0.0,,,,,,,,,,,,54,0.0,0.01,0.05,0.0,0,0.68,0.12,0,,False,0,,,,,,0.02085612341761589,0.025510787963867188,0.03412443771958351,908.4654541015625,36.4,,,,,,,,,,,,,,,Unknown
2026-04-03 17:18:56,3.02,-0.13,54.89,,,,,0.0,0.0,,,,,,,,,,,,54,0.0,0.01,0.11,0.0,0,0.68,0.13,0,,False,0,,,,,,0.02248905412852764,0.026086704805493355,0.033598966896533966,908.4593505859375,36.4,,,,,,,,,,,,,,,Unknown
2026-04-03 17:18:57,3.02,-0.13,54.89,,,,,0.0,0.0,,,,,,,,,,,,54,0.0,0.01,0.15,0.0,0,0.677,0.13,0,,False,0,,,,,,0.03278928995132446,0.03269683197140694,0.056768063455820084,908.4551391601562,36.4,,,,,,,,,,,,,,,Unknown
2026-04-03 17:18:57,3.01,-0.13,54.88,,,,,0.0,0.0,,,,,,,,,,,,54,0.0,0.01,0.07,0.0,0,0.678,0.12,0,,False,0,,,,,,0.03389253094792366,0.05833469331264496,0.05858991667628288,908.4631958007812,36.4,,,,,,,,,,,,,,,Unknown
2026-04-03 17:18:57,3.01,-0.13,54.87,,,,,0.0,0.0,,,,,,,,,,,,54,0.0,0.01,0.09,0.0,0,0.678,0.12,0,,False,0,,,,,,0.031983599066734314,0.030979953706264496,0.03830760344862938,908.4613037109375,36.4,,,,,,,,,,,,,,,Unknown
2026-04-03 17:18:57,3.01,-0.13,54.87,,,,,0.0,0.0,,,,,,,,,,,,54,0.0,0.01,0.08,0.0,0,0.68,0.13,0,,False,0,,,,,,0.02531437762081623,0.02654247172176838,0.03607408329844475,908.4617919921875,36.4,,,,,,,,,,,,,,,Unknown
2026-04-03 17:18:57,3.01,-0.13,54.86,,,,,0.0,0.0,,,,,,,,,,,,54,0.0,0.01,0.12,0.0,0,0.68,0.12,0,,False,0,,,,,,0.028015417978167534,0.028974242508411407,0.03732621669769287,908.457275390625,36.4,,,,,,,,,,,,,,,Unknown
2026-04-03 17:18:58,3.01,-0.14,54.86,,,,,0.0,0.0,,,,,,,,,,,,54,0.0,0.01,0.01,0.0,0,0.68,0.12,0,,False,0,,,,,,0.03076787292957306,0.031518809497356415,0.07656566053628922,908.4683227539062,36.4,,,,,,,,,,,,,,,Unknown
2026-04-03 17:18:58,3.01,-0.14,54.85,,,,,0.0,0.0,,,,,,,,,,,,54,0.0,0.01,0.32,-0.0,0,0.678,0.12,0,,False,0,,,,,,0.032632287591695786,0.04952763393521309,0.04783869907259941,908.4373168945312,36.4,,,,,,,,,,,,,,,Unknown
2026-04-03 17:18:58,3.01,-0.14,54.84,,,,,0.0,0.0,,,,,,,,,,,,54,0.0,0.01,-0.02,0.0,0,0.68,0.13,0,,False,0,,,,,,0.028622692450881004,0.0471503771841526,0.04211552441120148,908.4724731445312,36.4,,,,,,,,,,,,,,,Unknown
2026-04-03 17:18:58,3.01,-0.13,54.83,,,,,0.0,0.0,,,,,,,,,,,,54,0.0,0.01,-0.01,0.0,0,0.68,0.12,0,,False,0,,,,,,0.031401608139276505,0.03392952308058739,0.039608269929885864,908.4721069335938,36.4,,,,,,,,,,,,,,,Unknown
2026-04-03 17:18:58,3.01,-0.14,54.82,,,,,0.0,0.0,,,,,,,,,,,,54,0.0,0.01,-0.03,0.0,0,0.677,0.13,0,,False,0,,,,,,0.04046272858977318,0.04598049819469452,0.09338279813528061,908.4739379882812,36.4,,,,,,,,,,,,,,,Unknown
2026-04-03 17:18:59,3.01,-0.14,54.82,,,,,0.0,0.0,,,,,,,,,,,,54,0.0,0.01,0.14,0.0,0,0.678,0.13,0,,False,0,,,,,,0.028174106031656265,0.04043979570269585,0.05014762282371521,908.4561767578125,36.4,,,,,,,,,,,,,,,Unknown
2026-04-03 17:18:59,3.01,-0.14,54.82,,,,,0.0,0.0,,,,,,,,,,,,54,0.0,0.01,0.15,0.0,0,0.68,0.12,0,,False,0,,,,,,0.021449757739901543,0.024956630542874336,0.03601254150271416,908.4546508789062,36.4,,,,,,,,,,,,,,,Unknown
2026-04-03 17:18:59,3.01,-0.14,54.81,,,,,0.0,0.0,,,,,,,,,,,,54,0.0,0.01,0.11,0.0,0,0.68,0.13,0,,False,0,,,,,,0.021815601736307144,0.024991782382130623,0.034721486270427704,908.458984375,36.4,,,,,,,,,,,,,,,Unknown
2026-04-03 17:18:59,3.01,-0.14,54.8,,,,,0.0,0.0,,,,,,,,,,,,54,0.0,0.01,0.1,0.0,0,0.68,0.13,0,,False,0,,,,,,0.022531477734446526,0.02016366831958294,0.029872829094529152,908.4598388671875,36.4,,,,,,,,,,,,,,,Unknown
2026-04-03 17:18:59,3.01,-0.14,54.8,,,,,0.0,0.0,,,,,,,,,,,,54,0.0,0.01,0.18,0.01,0,0.682,0.13,0,,False,0,,,,,,0.025982117280364037,0.0369308702647686,0.06711644679307938,908.4523315429688,36.4,,,,,,,,,,,,,,,Unknown
2026-04-03 17:19:00,3.0,-0.14,54.8,,,,,0.0,0.0,,,,,,,,,,,,54,0.0,0.01,-0.07,0.01,0,0.68,0.13,0,,False,0,,,,,,0.025947650894522667,0.04289427399635315,0.06688130646944046,908.4786376953125,36.4,,,,,,,,,,,,,,,Unknown
2026-04-03 17:19:00,3.0,-0.14,54.79,,,,,0.0,0.0,,,,,,,,,,,,54,0.0,0.01,0.06,0.01,0,0.68,0.12,0,,False,0,,,,,,0.02172604203224182,0.03144926577806473,0.03559665009379387,908.4638061523438,36.4,,,,,,,,,,,,,,,Unknown
2026-04-03 17:19:00,3.0,-0.14,54.79,,,,,0.0,0.0,,,,,,,,,,,,54,0.0,0.01,0.3,0.0,0,0.68,0.13,0,,False,0,,,,,,0.038416363298892975,0.05145005136728287,0.16550695896148682,908.4401245117188,36.4,,,,,,,,,,,,,,,Unknown
2026-04-03 17:19:00,3.01,-0.14,54.78,,,,,0.0,0.0,,,,,,,,,,,,54,0.0,0.01,0.12,0.01,0,0.68,0.12,0,,False,0,,,,,,0.036208245903253555,0.05475509539246559,0.07725994288921356,908.4574584960938,36.4,,,,,,,,,,,,,,,Unknown
2026-04-03 17:19:00,3.0,-0.14,54.78,,,,,0.0,0.0,,,,,,,,,,,,54,0.0,0.01,0.2,0.01,0,0.678,0.13,0,,False,0,,,,,,0.025651469826698303,0.03474469855427742,0.04683687165379524,908.4495239257812,36.4,,,,,,,,,,,,,,,Unknown
2026-04-03 17:19:01,3.0,-0.14,54.77,,,,,0.0,0.0,,,,,,,,,,,,54,0.0,0.01,0.06,0.01,0,0.678,0.13,0,,False,0,,,,,,0.03729599341750145,0.04670487716794014,0.0489167794585228,908.4635620117188,36.4,,,,,,,,,,,,,,,Unknown
2026-04-03 17:19:01,3.0,-0.14,54.77,,,,,0.0,0.0,,,,,,,,,,,,54,0.0,0.01,-0.04,0.01,0,0.68,0.13,0,,False,0,,,,,,0.032845593988895416,0.05101456120610237,0.18101030588150024,908.4749145507812,36.4,,,,,,,,,,,,,,,Unknown
2026-04-03 17:19:01,3.0,-0.14,54.76,,,,,0.0,0.0,,,,,,,,,,,,54,0.0,0.01,0.03,0.01,0,0.68,0.13,0,,False,0,,,,,,0.030696088448166847,0.04269104078412056,0.09298683702945709,908.4663696289062,36.4,,,,,,,,,,,,,,,Unknown
2026-04-03 17:19:01,3.0,-0.14,54.75,,,,,0.0,0.0,,,,,,,,,,,,54,0.0,0.01,-0.01,0.01,0,0.678,0.12,0,,False,0,,,,,,0.03875262290239334,0.06201418116688728,0.14956951141357422,908.4718627929688,36.4,,,,,,,,,,,,,,,Unknown
2026-04-03 17:19:01,3.0,-0.14,54.74,,,,,0.0,0.0,,,,,,,,,,,,54,0.0,0.01,0.02,0.01,0,0.678,0.13,0,,False,0,,,,,,0.02672799676656723,0.039108503609895706,0.05569760501384735,908.468017578125,36.4,,,,,,,,,,,,,,,Unknown
2026-04-03 17:19:02,3.0,-0.14,54.75,,,,,0.0,0.0,,,,,,,,,,,,54,0.0,0.01,-0.14,0.01,0,0.68,0.12,0,,False,0,,,,,,0.027940701693296432,0.02684333734214306,0.054142870008945465,908.470947265625,36.4,,,,,,,,,,,,,,,Unknown
2026-04-03 17:19:02,3.0,-0.14,54.75,,,,,0.0,0.0,,,,,,,,,,,,54,0.0,0.0,-0.09,0.0,0,0.68,0.13,0,,False,0,,,,,,0.02595130167901516,0.036479122936725616,0.03644302487373352,908.4683227539062,36.4,,,,,,,,,,,,,,,Unknown
2026-04-03 17:19:02,3.0,-0.14,54.74,,,,,0.0,0.0,,,,,,,,,,,,54,0.0,0.0,-0.1,0.0,0,0.675,0.12,0,,False,0,,,,,,0.0197434164583683,0.024164779111742973,0.029817333444952965,908.4622192382812,36.4,,,,,,,,,,,,,,,Unknown
2026-04-03 17:19:02,3.0,-0.14,54.73,,,,,0.0,0.0,,,,,,,,,,,,54,0.0,0.0,-0.06,-0.0,0,0.68,0.12,0,,False,0,,,,,,0.026032064110040665,0.03424236550927162,0.03124573454260826,908.44482421875,36.4,,,,,,,,,,,,,,,Unknown
2026-04-03 17:19:02,3.0,-0.14,54.73,,,,,0.0,0.0,,,,,,,,,,,,54,0.0,0.0,0.09,-0.0,0,0.677,0.12,0,,False,0,,,,,,0.021340394392609596,0.027386782690882683,0.031908608973026276,908.4584350585938,36.4,,,,,,,,,,,,,,,Unknown
2026-04-03 17:19:03,3.0,-0.15,54.73,,,,,0.0,0.0,,,,,,,,,,,,54,0.0,0.0,-0.09,-0.0,0,0.68,0.13,0,,False,0,,,,,,0.02615608088672161,0.02707388624548912,0.032983407378196716,908.4603881835938,36.4,,,,,,,,,,,,,,,Unknown
2026-04-03 17:19:03,3.0,-0.15,54.71,,,,,0.0,0.0,,,,,,,,,,,,54,0.0,0.0,0.23,-0.0,0,0.68,0.12,0,,False,0,,,,,,0.026449128985404968,0.03129233792424202,0.02894805371761322,908.4467163085938,36.4,,,,,,,,,,,,,,,Unknown
2026-04-03 17:19:03,3.0,-0.15,54.71,,,,,0.0,0.0,,,,,,,,,,,,54,0.0,0.0,0.18,-0.0,0,0.678,0.12,0,,False,0,,,,,,0.018835656344890594,0.025759048759937286,0.026765579357743263,908.451416015625,36.4,,,,,,,,,,,,,,,Unknown
2026-04-03 17:19:03,3.0,-0.15,54.7,,,,,0.0,0.0,,,,,,,,,,,,54,0.0,0.0,0.16,0.0,0,0.678,0.13,0,,False,0,,,,,,0.02324994094669819,0.031386345624923706,0.031355928629636765,908.4532470703125,36.4,,,,,,,,,,,,,,,Unknown
2026-04-03 17:19:03,3.0,-0.15,54.7,,,,,0.0,0.0,,,,,,,,,,,,54,0.0,0.0,0.11,0.01,0,0.68,0.13,0,,False,0,,,,,,0.021137166768312454,0.02906229719519615,0.029195956885814667,908.4588623046875,36.4,,,,,,,,,,,,,,,Unknown
2026-04-03 17:19:04,2.99,-0.15,54.7,,,,,0.0,0.0,,,,,,,,,,,,54,0.0,0.0,0.25,0.01,0,0.682,0.12,0,,False,0,,,,,,0.02224563993513584,0.028018804267048836,0.03153593838214874,908.44482421875,36.4,,,,,,,,,,,,,,,Unknown
2026-04-03 17:19:04,3.0,-0.15,54.69,,,,,0.0,0.0,,,,,,,,,,,,54,0.0,0.0,0.14,0.01,0,0.683,0.13,0,,False,0,,,,,,0.020013783127069473,0.02283412590622902,0.026620494201779366,908.4556274414062,36.4,,,,,,,,,,,,,,,Unknown
2026-04-03 17:19:04,2.99,-0.15,54.68,,,,,0.0,0.0,,,,,,,,,,,,54,0.0,0.0,0.13,0.01,0,0.682,0.13,0,,False,0,,,,,,0.01824350841343403,0.024456672370433807,0.028582146391272545,908.45703125,36.4,,,,,,,,,,,,,,,Unknown
2026-04-03 17:19:04,2.99,-0.15,54.68,,,,,0.0,0.0,,,,,,,,,,,,54,0.0,0.0,0.05,0.01,0,0.678,0.13,0,,False,0,,,,,,0.023724153637886047,0.026025956496596336,0.03405347466468811,908.4647216796875,36.4,,,,,,,,,,,,,,,Unknown
2026-04-03 17:19:04,2.99,-0.15,54.68,,,,,0.0,0.0,,,,,,,,,,,,54,0.0,0.0,0.02,0.0,0,0.68,0.13,0,,False,0,,,,,,0.0186126958578825,0.02152300998568535,0.027076996862888336,908.467529296875,36.4,,,,,,,,,,,,,,,Unknown
2026-04-03 17:19:05,2.99,-0.15,54.67,,,,,0.0,0.0,,,,,,,,,,,,54,0.0,0.0,0.03,0.0,0,0.682,0.13,0,,False,0,,,,,,0.01880686543881893,0.026574108749628067,0.030187135562300682,908.4674072265625,36.4,,,,,,,,,,,,,,,Unknown
2026-04-03 17:19:05,2.99,-0.15,54.67,,,,,0.0,0.0,,,,,,,,,,,,54,0.0,0.0,0.07,0.0,0,0.68,0.12,0,,False,0,,,,,,0.02179921790957451,0.025918126106262207,0.034215670078992844,908.46240234375,36.4,,,,,,,,,,,,,,,Unknown
2026-04-03 17:19:05,2.99,-0.15,54.66,,,,,0.0,0.0,,,,,,,,,,,,54,0.0,0.0,0.06,0.0,0,0.68,0.13,0,,False,0,,,,,,0.021267613396048546,0.026000531390309334,0.03189145401120186,908.4642944335938,36.4,,,,,,,,,,,,,,,Unknown
2026-04-03 17:19:05,2.99,-0.15,54.66,,,,,0.0,0.0,,,,,,,,,,,,54,0.0,0.0,0.14,0.0,0,0.68,0.12,0,,False,0,,,,,,0.022954190149903297,0.021517476066946983,0.026155222207307816,908.4553833007812,36.4,,,,,,,,,,,,,,,Unknown
2026-04-03 17:19:05,2.99,-0.15,54.66,,,,,0.0,0.0,,,,,,,,,,,,54,0.0,0.0,-0.05,0.0,0,0.68,0.12,0,,False,0,,,,,,0.020236650481820107,0.023615166544914246,0.025831665843725204,908.475830078125,36.4,,,,,,,,,,,,,,,Unknown
2026-04-03 17:19:06,2.99,-0.15,54.65,,,,,0.0,0.0,,,,,,,,,,,,54,0.0,0.0,0.05,0.0,0,0.682,0.13,0,,False,0,,,,,,0.02194610983133316,0.025223148986697197,0.027218088507652283,908.4654541015625,36.4,,,,,,,,,,,,,,,Unknown
2026-04-03 17:19:06,2.99,-0.15,54.65,,,,,0.0,0.0,,,,,,,,,,,,54,0.0,0.01,0.04,0.0,0,0.68,0.13,0,,False,0,,,,,,0.019972436130046844,0.027477886527776718,0.028738491237163544,908.4660034179688,36.4,,,,,,,,,,,,,,,Unknown
2026-04-03 17:19:06,2.99,-0.15,54.65,,,,,0.0,0.0,,,,,,,,,,,,54,0.0,0.01,-0.19,-0.0,0,0.68,0.13,0,,False,0,,,,,,0.023461967706680298,0.03209737315773964,0.02991402894258499,908.4899291992188,36.4,,,,,,,,,,,,,,,Unknown
2026-04-03 17:19:06,2.99,-0.14,54.65,,,,,0.0,0.0,,,,,,,,,,,,54,0.0,0.01,0.09,-0.0,0,0.68,0.13,0,,False,0,,,,,,0.0234211478382349,0.02599545381963253,0.033855974674224854,908.4607543945312,36.4,,,,,,,,,,,,,,,Unknown
2026-04-03 17:19:06,3.0,-0.14,54.65,,,,,0.0,0.0,,,,,,,,,,,,54,0.0,0.01,0.03,-0.0,0,0.682,0.13,0,,False,0,,,,,,0.035433579236269,0.04825027659535408,0.16238150000572205,908.4671020507812,36.4,,,,,,,,,,,,,,,Unknown
2026-04-03 17:19:07,2.99,-0.14,54.64,,,,,0.0,0.0,,,,,,,,,,,,54,0.0,0.01,0.0,-0.01,0,0.68,0.12,0,,False,0,,,,,,0.03365191072225571,0.05073339492082596,0.07249026000499725,908.4701538085938,36.4,,,,,,,,,,,,,,,Unknown
2026-04-03 17:19:07,2.99,-0.15,54.64,,,,,0.0,0.0,,,,,,,,,,,,54,0.0,0.01,0.09,-0.01,0,0.678,0.13,0,,False,0,,,,,,0.025144929066300392,0.0285915806889534,0.05198386684060097,908.4605102539062,36.4,,,,,,,,,,,,,,,Unknown
2026-04-03 17:19:07,2.98,-0.16,54.64,,,,,0.0,0.0,,,,,,,,,,,,54,0.0,0.01,0.17,-0.01,0,0.682,0.13,0,,False,0,,,,,,0.041415829211473465,0.0670333057641983,0.10525698214769363,908.4528198242188,36.4,,,,,,,,,,,,,,,Unknown
2026-04-03 17:19:07,2.97,-0.18,54.63,,,,,0.0,0.0,,,,,,,,,,,,54,0.0,0.01,0.14,-0.01,0,0.678,0.13,0,,False,0,,,,,,0.03623852878808975,0.07724909484386444,0.05706832930445671,908.4553833007812,36.39,,,,,,,,,,,,,,,Unknown
2026-04-03 17:19:07,2.97,-0.19,54.63,,,,,0.0,0.0,,,,,,,,,,,,54,0.0,0.0,0.16,-0.01,0,0.68,0.13,0,,False,0,,,,,,0.058609746396541595,0.14223194122314453,0.06721419841051102,908.4532470703125,36.4,,,,,,,,,,,,,,,Unknown
2026-04-03 17:19:08,2.96,-0.2,54.63,,,,,0.0,0.0,,,,,,,,,,,,54,0.0,0.0,-0.06,-0.0,0,0.68,0.13,0,,False,0,,,,,,0.03278796002268791,0.06701211631298065,0.034490905702114105,908.4765625,36.4,,,,,,,,,,,,,,,Unknown
2026-04-03 17:19:08,2.96,-0.2,54.63,,,,,0.0,0.0,,,,,,,,,,,,54,0.0,0.0,0.07,-0.01,0,0.683,0.12,0,,False,0,,,,,,0.02334742248058319,0.0311064962297678,0.02764146402478218,908.462890625,36.4,,,,,,,,,,,,,,,Unknown
2026-04-03 17:19:08,2.96,-0.19,54.63,,,,,0.0,0.0,,,,,,,,,,,,54,0.0,0.0,0.02,-0.01,0,0.677,0.13,0,,False,0,,,,,,0.02233741246163845,0.029844336211681366,0.03667456656694412,908.4676513671875,36.4,,,,,,,,,,,,,,,Unknown
2026-04-03 17:19:08,2.96,-0.19,54.64,,,,,0.0,0.0,,,,,,,,,,,,54,0.0,0.0,-0.02,-0.01,0,0.678,0.13,0,,False,0,,,,,,0.027218643575906754,0.04017750173807144,0.033598776906728745,908.4727172851562,36.4,,,,,,,,,,,,,,,Unknown
2026-04-03 17:19:08,2.62,-0.21,54.35,,,,,0.0,0.0,,,,,,,,,,,,54,0.0,0.01,0.09,-0.01,0,0.68,0.13,0,,False,0,,,,,,0.10481274127960205,0.23863354325294495,0.17819315195083618,908.4606323242188,36.4,,,,,,,,,,,,,,,Unknown
2026-04-03 17:19:09,2.8,-1.23,53.35,,,,,0.0,0.0,,,,,,,,,,,,53,0.0,0.04,0.05,0.01,0,0.68,0.13,0,,False,0,,,,,,0.29244959354400635,0.19370868802070618,0.2580239772796631,908.4647216796875,36.4,,,,,,,,,,,,,,,Unknown
2026-04-03 17:19:09,3.55,-9.12,51.71,,,,,0.0,0.0,,,,,,,,,,,,51,0.0,0.06,0.2,0.01,0,0.676,0.13,0,,False,0,,,,,,0.4468974173069,0.3377321660518646,0.29231178760528564,908.4492797851562,36.39,,,,,,,,,,,,,,,Unknown
2026-04-03 17:19:09,3.61,-12.26,51.78,,,,,0.0,0.0,,,,,,,,,,,,51,0.0,0.02,-0.12,-0.0,0,0.68,0.12,0,,False,0,,,,,,0.30118024349212646,0.1562187224626541,0.34426742792129517,908.4830932617188,36.4,,,,,,,,,,,,,,,Unknown
2026-04-03 17:19:09,4.03,-15.52,50.84,,,,,0.0,0.0,,,,,,,,,,,,50,0.0,0.04,-0.05,-0.01,0,0.678,0.12,0,,False,0,,,,,,0.15267051756381989,0.09280581027269363,0.29657217860221863,908.4755859375,36.4,,,,,,,,,,,,,,,Unknown
2026-04-03 17:19:09,4.05,-15.98,49.27,,,,,0.0,0.0,,,,,,,,,,,,48,0.0,0.04,0.26,-0.02,0,0.68,0.13,0,,False,0,,,,,,0.19748257100582123,0.18354341387748718,0.3027653098106384,908.4439086914062,36.4,,,,,,,,,,,,,,,Unknown
2026-04-03 17:19:10,3.74,-12.05,48.53,,,,,0.0,0.0,,,,,,,,,,,,48,0.0,0.08,0.06,-0.04,0,0.68,0.13,0,,False,0,,,,,,0.30751335620880127,0.3555469810962677,1.1463043689727783,908.4640502929688,36.4,,,,,,,,,,,,,,,Unknown
2026-04-03 17:19:10,3.09,-5.12,46.78,,,,,0.0,0.0,,,,,,,,,,,,46,0.0,0.07,0.18,-0.03,0,0.68,0.12,0,,False,0,,,,,,0.4692922830581665,0.5442656874656677,1.085397481918335,908.4518432617188,36.4,,,,,,,,,,,,,,,Unknown
2026-04-03 17:19:10,2.93,-4.67,46.42,,,,,0.0,0.0,,,,,,,,,,,,46,0.0,0.01,0.02,-0.03,0,0.68,0.13,0,,False,0,,,,,,0.4508371949195862,0.3621090054512024,0.4356097877025604,908.46826171875,36.39,,,,,,,,,,,,,,,Unknown
2026-04-03 17:19:10,3.02,-1.31,45.47,,,,,0.0,0.0,,,,,,,,,,,,45,0.0,0.09,0.0,-0.03,0,0.68,0.12,0,,False,0,,,,,,0.5016849637031555,0.7821040749549866,0.6820694804191589,908.47021484375,36.39,,,,,,,,,,,,,,,Unknown
2026-04-03 17:19:10,2.98,-0.17,44.45,,,,,0.0,0.0,,,,,,,,,,,,44,0.0,0.01,0.09,-0.02,0,0.68,0.12,0,,False,0,,,,,,0.9230494499206543,1.394845962524414,1.9294596910476685,908.4606323242188,36.39,,,,,,,,,,,,,,,Unknown
2026-04-03 17:19:11,2.74,-0.06,44.49,,,,,0.0,0.0,,,,,,,,,,,,44,0.0,0.04,-0.02,-0.02,0,0.678,0.13,0,,False,0,,,,,,0.43854737281799316,0.558606743812561,0.5918452143669128,908.4735107421875,36.4,,,,,,,,,,,,,,,Unknown
2026-04-03 17:19:11,2.86,-0.04,44.56,,,,,0.0,0.0,,,,,,,,,,,,44,0.0,0.04,0.0,-0.02,0,0.682,0.13,0,,False,0,,,,,,0.17974574863910675,0.23795676231384277,0.20916394889354706,908.470458984375,36.39,,,,,,,,,,,,,,,Unknown
2026-04-03 17:19:11,2.83,-0.06,44.5,,,,,0.0,0.0,,,,,,,,,,,,44,0.0,0.04,0.09,-0.02,0,0.68,0.13,0,,False,0,,,,,,0.1305972933769226,0.2222326099872589,0.12734578549861908,908.4605102539062,36.39,,,,,,,,,,,,,,,Unknown
2026-04-03 17:19:11,2.82,-0.11,44.36,,,,,0.0,0.0,,,,,,,,,,,,44,0.0,0.05,-0.14,-0.01,0,0.68,0.12,0,,False,0,,,,,,0.06486547738313675,0.11460719257593155,0.06788377463817596,908.4855346679688,36.39,,,,,,,,,,,,,,,Unknown
2026-04-03 17:19:11,3.0,-0.25,43.45,,,,,0.0,0.0,,,,,,,,,,,,43,0.0,0.06,-0.09,-0.0,0,0.678,0.13,0,,False,0,,,,,,0.17143802344799042,0.22581826150417328,0.630574643611908,908.4802856445312,36.39,,,,,,,,,,,,,,,Unknown
2026-04-03 17:19:12,3.13,7.53,42.92,,,,,0.0,0.0,,,,,,,,,,,,42,0.0,0.19,0.23,0.14,0,0.68,0.13,0,,False,0,,,,,,0.54966139793396,0.15237386524677277,0.3151586651802063,908.4465942382812,36.39,,,,,,,,,,,,,,,Unknown
2026-04-03 17:19:12,4.36,17.15,44.34,,,,,0.0,0.0,,,,,,,,,,,,44,0.0,0.12,0.06,0.06,0,0.68,0.13,0,,False,0,,,,,,0.5815573334693909,0.36458370089530945,0.3414691984653473,908.4638671875,36.39,,,,,,,,,,,,,,,Unknown
2026-04-03 17:19:12,4.27,17.32,44.39,,,,,0.0,0.0,,,,,,,,,,,,44,0.0,0.07,0.02,-0.03,0,0.68,0.13,0,,False,0,,,,,,0.2424389272928238,0.15231157839298248,0.2118930071592331,908.46826171875,36.39,,,,,,,,,,,,,,,Unknown
2026-04-03 17:19:12,2.98,13.96,43.84,,,,,0.0,0.0,,,,,,,,,,,,43,0.0,0.08,0.06,-0.02,0,0.68,0.13,0,,False,0,,,,,,0.12000109255313873,0.09817460924386978,0.12113229930400848,908.464111328125,36.39,,,,,,,,,,,,,,,Unknown
2026-04-03 17:19:12,1.98,8.03,44.05,,,,,0.0,0.0,,,,,,,,,,,,43,0.0,0.1,0.06,-0.06,0,0.68,0.13,0,,False,0,,,,,,0.2731274664402008,0.18709293007850647,0.286769300699234,908.4638671875,36.39,,,,,,,,,,,,,,,Unknown
2026-04-03 17:19:13,1.98,4.48,43.17,,,,,0.0,0.0,,,,,,,,,,,,42,0.0,0.08,-0.15,-0.08,0,0.68,0.12,0,,False,0,,,,,,0.17486900091171265,0.13205192983150482,0.18551196157932281,908.4859008789062,36.39,,,,,,,,,,,,,,,Unknown
2026-04-03 17:19:13,2.83,0.46,42.49,,,,,0.0,0.0,,,,,,,,,,,,42,0.0,0.08,0.01,-0.05,0,0.68,0.13,0,,False,0,,,,,,0.23148393630981445,0.11197488754987717,0.2772485017776489,908.4683227539062,36.39,,,,,,,,,,,,,,,Unknown
2026-04-03 17:19:13,3.18,-0.36,42.34,,,,,0.0,0.0,,,,,,,,,,,,42,0.0,0.08,-0.03,0.01,0,0.68,0.13,0,,False,0,,,,,,0.12788692116737366,0.0831943154335022,0.13207730650901794,908.4737548828125,36.39,,,,,,,,,,,,,,,Unknown
2026-04-03 17:19:13,4.0,0.34,41.96,,,,,0.0,0.0,,,,,,,,,,,,41,0.0,0.07,-0.01,-0.01,0,0.68,0.13,0,,False,0,,,,,,0.0745740756392479,0.08653809130191803,0.26719099283218384,908.4713745117188,36.39,,,,,,,,,,,,,,,Unknown
2026-04-03 17:19:13,4.21,-0.41,35.84,,,,,0.0,0.0,,,,,,,,,,,,35,0.0,0.15,0.11,-0.04,0,0.68,0.12,0,,False,0,,,,,,0.11853152513504028,0.23253214359283447,0.24251218140125275,908.4593505859375,36.39,,,,,,,,,,,,,,,Unknown
2026-04-03 17:19:14,3.73,-0.01,26.02,,,,,0.0,0.0,,,,,,,,,,,,25,0.0,0.12,0.18,-0.0,0,0.68,0.13,0,,False,0,,,,,,0.41500982642173767,0.41233378648757935,0.8394976854324341,908.4523315429688,36.39,,,,,,,,,,,,,,,Unknown
2026-04-03 17:19:14,3.44,-0.21,24.84,,,,,0.0,0.0,,,,,,,,,,,,24,0.0,0.09,-0.16,-0.0,0,0.682,0.13,0,,False,0,,,,,,0.2935328185558319,0.22389830648899078,0.6971693634986877,908.4873046875,36.39,,,,,,,,,,,,,,,Unknown
2026-04-03 17:19:14,3.94,-0.61,28.99,,,,,0.0,0.0,,,,,,,,,,,,28,0.0,0.06,-0.06,0.0,0,0.68,0.13,0,,False,0,,,,,,0.13316607475280762,0.14527112245559692,0.22522015869617462,908.4768676757812,36.39,,,,,,,,,,,,,,,Unknown
2026-04-03 17:19:14,4.26,-2.01,37.94,,,,,0.0,0.0,,,,,,,,,,,,37,0.0,0.06,0.14,0.0,0,0.678,0.13,0,,False,0,,,,,,0.11105316132307053,0.10741034150123596,0.20457828044891357,908.4556884765625,36.38,,,,,,,,,,,,,,,Unknown
2026-04-03 17:19:14,5.07,-2.26,42.99,,,,,0.0,0.0,,,,,,,,,,,,42,0.0,0.09,-0.06,-0.0,0,0.682,0.13,0,,False,0,,,,,,0.09970588982105255,0.18676097691059113,0.1525229960680008,908.4765625,36.39,,,,,,,,,,,,,,,Unknown
2026-04-03 17:19:15,7.88,-1.42,42.06,,,,,0.0,0.0,,,,,,,,,,,,41,0.0,0.06,0.0,0.03,0,0.68,0.13,0,,False,0,,,,,,0.08201328665018082,0.207231342792511,0.13109904527664185,908.470947265625,36.38,,,,,,,,,,,,,,,Unknown
2026-04-03 17:19:15,13.02,1.21,42.91,,,,,0.0,0.0,,,,,,,,,,,,42,0.0,0.08,-0.11,0.02,0,0.68,0.13,0,,False,0,,,,,,0.25813087821006775,0.3905961811542511,0.40325093269348145,908.48193359375,36.39,,,,,,,,,,,,,,,Unknown
2026-04-03 17:19:15,16.15,0.36,43.5,,,,,0.0,0.0,,,,,,,,,,,,43,0.0,0.03,-0.14,-0.02,0,0.683,0.13,0,,False,0,,,,,,0.2080942839384079,0.25787481665611267,0.20712068676948547,908.4844970703125,36.39,,,,,,,,,,,,,,,Unknown
2026-04-03 17:19:15,16.9,-0.69,44.01,,,,,0.0,0.0,,,,,,,,,,,,43,0.0,0.07,-0.06,-0.01,0,0.68,0.12,0,,False,0,,,,,,0.4545600116252899,0.34465035796165466,0.49641650915145874,908.4768676757812,36.38,,,,,,,,,,,,,,,Unknown
2026-04-03 17:19:15,15.02,-0.78,44.34,,,,,0.0,0.0,,,,,,,,,,,,44,0.0,0.09,0.13,-0.0,0,0.68,0.13,0,,False,0,,,,,,0.14029186964035034,0.14297904074192047,0.17896537482738495,908.4570922851562,36.38,,,,,,,,,,,,,,,Unknown
2026-04-03 17:19:16,6.57,-0.0,44.89,,,,,0.0,0.0,,,,,,,,,,,,44,0.0,0.16,0.0,0.01,0,0.678,0.12,0,,False,0,,,,,,0.08401671051979065,0.37501469254493713,0.11305228620767593,908.47021484375,36.38,,,,,,,,,,,,,,,Unknown
2026-04-03 17:19:16,0.7,1.69,44.14,,,,,0.0,0.0,,,,,,,,,,,,43,0.0,0.08,0.0,0.02,0,0.677,0.12,0,,False,0,,,,,,0.12286161631345749,0.22985263168811798,0.12125932425260544,908.470947265625,36.38,,,,,,,,,,,,,,,Unknown
2026-04-03 17:19:16,-5.6,0.15,44.87,,,,,0.0,0.0,,,,,,,,,,,,44,0.0,0.13,-0.18,-0.03,0,0.68,0.13,0,,False,0,,,,,,0.11247003823518753,0.2469981461763382,0.10647772252559662,908.4885864257812,36.38,,,,,,,,,,,,,,,Unknown
2026-04-03 17:19:16,-11.82,-1.54,45.71,,,,,0.0,0.0,,,,,,,,,,,,45,0.0,0.07,0.0,-0.01,0,0.678,0.13,0,,False,0,,,,,,0.0950431227684021,0.26831185817718506,0.07352031022310257,908.4707641601562,36.38,,,,,,,,,,,,,,,Unknown
2026-04-03 17:19:16,-15.17,-1.44,46.39,,,,,0.0,0.0,,,,,,,,,,,,46,0.0,0.08,-0.11,-0.0,0,0.68,0.13,0,,False,0,,,,,,0.2934017777442932,0.4140630066394806,0.508004367351532,908.482666015625,36.38,,,,,,,,,,,,,,,Unknown
2026-04-03 17:19:17,-18.72,0.92,45.68,,,,,0.0,0.0,,,,,,,,,,,,45,0.0,0.09,-0.01,-0.01,0,0.682,0.13,0,,False,0,,,,,,0.1960093379020691,0.3397091329097748,0.480160653591156,908.4718627929688,36.38,,,,,,,,,,,,,,,Unknown
2026-04-03 17:19:17,-16.51,1.65,43.75,,,,,0.0,0.0,,,,,,,,,,,,43,0.0,0.05,-0.16,-0.04,0,0.68,0.12,0,,False,0,,,,,,0.23868495225906372,0.40115150809288025,0.3933051824569702,908.4876098632812,36.38,,,,,,,,,,,,,,,Unknown
2026-04-03 17:19:17,-9.85,-0.99,43.58,,,,,0.0,0.0,,,,,,,,,,,,43,0.0,0.08,-0.14,-0.05,0,0.678,0.13,0,,False,0,,,,,,0.21694041788578033,0.3136681318283081,0.3561033010482788,908.4847412109375,36.38,,,,,,,,,,,,,,,Unknown
2026-04-03 17:19:17,-1.73,-2.14,42.44,,,,,0.0,0.0,,,,,,,,,,,,42,0.0,0.07,-0.01,-0.04,0,0.68,0.13,0,,False,0,,,,,,0.12906353175640106,0.35649362206459045,0.17157819867134094,908.4718627929688,36.38,,,,,,,,,,,,,,,Unknown
2026-04-03 17:19:17,2.4,-1.58,41.87,,,,,0.0,0.0,,,,,,,,,,,,41,0.0,0.06,-0.07,-0.05,0,0.682,0.12,0,,False,0,,,,,,0.11953089386224747,0.15467305481433868,0.20747880637645721,908.4786376953125,36.38,,,,,,,,,,,,,,,Unknown
2026-04-03 17:19:18,5.5,-3.25,41.51,,,,,0.0,0.0,,,,,,,,,,,,41,0.0,0.05,-0.09,0.01,0,0.678,0.12,0,,False,0,,,,,,0.8555098176002502,0.6043232679367065,1.0104960203170776,908.4801635742188,36.38,,,,,,,,,,,,,,,Unknown
2026-04-03 17:19:18,5.44,-0.55,42.35,,,,,0.0,0.0,,,,,,,,,,,,42,0.0,0.03,-0.04,-0.1,0,0.684,0.13,0,,False,0,,,,,,0.6682854890823364,1.282004952430725,2.0906288623809814,908.4751586914062,36.37,,,,,,,,,,,,,,,Unknown
2026-04-03 17:19:18,5.39,-0.93,41.94,,,,,0.0,0.0,,,,,,,,,,,,41,0.0,0.04,-0.05,-0.03,0,0.678,0.12,0,,False,0,,,,,,0.5179553627967834,0.7510197162628174,1.2827953100204468,908.475830078125,36.37,,,,,,,,,,,,,,,Unknown
2026-04-03 17:19:18,4.75,-1.54,42.5,,,,,0.0,0.0,,,,,,,,,,,,42,0.0,0.03,-0.08,-0.03,0,0.682,0.12,0,,False,0,,,,,,0.18005749583244324,0.27643805742263794,0.41165250539779663,908.4789428710938,36.37,,,,,,,,,,,,,,,Unknown
2026-04-03 17:19:18,4.98,-1.36,42.5,,,,,0.0,0.0,,,,,,,,,,,,42,0.0,0.03,0.09,-0.03,0,0.682,0.13,0,,False,0,,,,,,0.1295941323041916,0.19920769333839417,0.16308623552322388,908.4606323242188,36.37,,,,,,,,,,,,,,,Unknown
2026-04-03 17:19:19,3.94,-2.39,42.64,,,,,0.0,0.0,,,,,,,,,,,,42,0.0,0.03,-0.17,-0.03,0,0.68,0.13,0,,False,0,,,,,,0.11426710337400436,0.11395871639251709,0.09748443216085434,908.4881591796875,36.37,,,,,,,,,,,,,,,Unknown
2026-04-03 17:19:19,4.43,-1.91,42.58,,,,,0.0,0.0,,,,,,,,,,,,42,0.0,0.03,-0.14,-0.03,0,0.68,0.13,0,,False,0,,,,,,0.07921387255191803,0.09806656837463379,0.0654139295220375,908.484619140625,36.37,,,,,,,,,,,,,,,Unknown
2026-04-03 17:19:19,4.15,-2.2,42.65,,,,,0.0,0.0,,,,,,,,,,,,42,0.0,0.02,-0.11,-0.03,0,0.68,0.13,0,,False,0,,,,,,0.08768198639154434,0.09445663541555405,0.05707307904958725,908.48193359375,36.37,,,,,,,,,,,,,,,Unknown
2026-04-03 17:19:19,4.31,-2.05,42.6,,,,,0.0,0.0,,,,,,,,,,,,42,0.0,0.03,-0.14,-0.03,0,0.678,0.13,0,,False,0,,,,,,0.07225532084703445,0.07323093712329865,0.04808412119746208,908.4847412109375,36.37,,,,,,,,,,,,,,,Unknown
2026-04-03 17:19:19,4.44,-1.91,42.55,,,,,0.0,0.0,,,,,,,,,,,,42,0.0,0.03,-0.28,-0.03,0,0.68,0.13,0,,False,0,,,,,,0.05803781375288963,0.06432247906923294,0.0518055334687233,908.4989013671875,36.37,,,,,,,,,,,,,,,Unknown
2026-04-03 17:19:20,4.15,-2.18,42.61,,,,,0.0,0.0,,,,,,,,,,,,42,0.0,0.02,-0.01,-0.03,0,0.68,0.13,0,,False,0,,,,,,0.05441028252243996,0.051176294684410095,0.10265184938907623,908.4716186523438,36.37,,,,,,,,,,,,,,,Unknown
2026-04-03 17:19:20,4.38,-1.95,42.62,,,,,0.0,0.0,,,,,,,,,,,,42,0.0,0.02,0.06,-0.03,0,0.68,0.13,0,,False,0,,,,,,0.12621812522411346,0.14265118539333344,0.0835735872387886,908.464111328125,36.37,,,,,,,,,,,,,,,Unknown
2026-04-03 17:19:20,4.32,-2.02,42.62,,,,,0.0,0.0,,,,,,,,,,,,42,0.0,0.02,-0.12,-0.03,0,0.68,0.13,0,,False,0,,,,,,0.07792328298091888,0.07863666117191315,0.054817330092191696,908.483154296875,36.37,,,,,,,,,,,,,,,Unknown
2026-04-03 17:19:20,4.4,-1.94,42.66,,,,,0.0,0.0,,,,,,,,,,,,42,0.0,0.02,-0.23,-0.03,0,0.68,0.13,0,,False,0,,,,,,0.12607771158218384,0.09619011729955673,0.0740027129650116,908.4935913085938,36.37,,,,,,,,,,,,,,,Unknown
2026-04-03 17:19:20,4.59,-1.76,42.67,,,,,0.0,0.0,,,,,,,,,,,,42,0.0,0.03,-0.01,-0.03,0,0.678,0.13,0,,False,0,,,,,,0.09870390594005585,0.0941828042268753,0.06185339763760567,908.47216796875,36.36,,,,,,,,,,,,,,,Unknown
2026-04-03 17:19:21,4.68,-1.66,42.63,,,,,0.0,0.0,,,,,,,,,,,,42,0.0,0.02,-0.11,-0.03,0,0.678,0.13,0,,False,0,,,,,,0.09474370628595352,0.07750432938337326,0.06619513034820557,908.481689453125,36.37,,,,,,,,,,,,,,,Unknown
2026-04-03 17:19:21,4.93,-1.37,42.58,,,,,0.0,0.0,,,,,,,,,,,,42,0.0,0.02,-0.1,-0.03,0,0.683,0.13,0,,False,0,,,,,,0.08329044282436371,0.07147116214036942,0.07236719131469727,908.4810180664062,36.37,,,,,,,,,,,,,,,Unknown
2026-04-03 17:19:21,5.22,-1.1,42.6,,,,,0.0,0.0,,,,,,,,,,,,42,0.0,0.02,-0.1,-0.03,0,0.676,0.12,0,,False,0,,,,,,0.053721118718385696,0.06050794571638107,0.07046166807413101,908.4805908203125,36.36,,,,,,,,,,,,,,,Unknown
2026-04-03 17:19:21,4.96,-1.35,42.64,,,,,0.0,0.0,,,,,,,,,,,,42,0.0,0.02,-0.12,-0.03,0,0.68,0.13,0,,False,0,,,,,,0.057884298264980316,0.07493896782398224,0.06189320981502533,908.4829711914062,36.36,,,,,,,,,,,,,,,Unknown
2026-04-03 17:19:21,5.25,-1.13,42.82,,,,,0.0,0.0,,,,,,,,,,,,42,0.0,0.02,0.04,-0.02,0,0.682,0.12,0,,False,0,,,,,,0.09718580543994904,0.11213114857673645,0.06596405059099197,908.4657592773438,36.36,,,,,,,,,,,,,,,Unknown
2026-04-03 17:19:22,4.99,-1.39,42.81,,,,,0.0,0.0,,,,,,,,,,,,42,0.0,0.02,-0.09,-0.02,0,0.68,0.13,0,,False,0,,,,,,0.07847084105014801,0.09968680888414383,0.09031739085912704,908.4796752929688,36.36,,,,,,,,,,,,,,,Unknown
2026-04-03 17:19:22,3.77,-2.51,42.88,,,,,0.0,0.0,,,,,,,,,,,,42,0.0,0.02,-0.02,-0.02,0,0.678,0.13,0,,False,0,,,,,,0.16379830241203308,0.16382522881031036,0.08272156864404678,908.472900390625,36.36,,,,,,,,,,,,,,,Unknown
2026-04-03 17:19:22,3.6,-2.62,42.52,,,,,0.0,0.0,,,,,,,,,,,,42,0.0,0.02,-0.23,-0.02,0,0.68,0.12,0,,False,0,,,,,,0.15234513580799103,0.14149081707000732,0.10007172077894211,908.4939575195312,36.36,,,,,,,,,,,,,,,Unknown
2026-04-03 17:19:22,3.99,-2.28,39.93,,,,,0.0,0.0,,,,,,,,,,,,39,0.0,0.02,-0.09,-0.02,0,0.682,0.12,0,,False,0,,,,,,0.17154139280319214,0.16407495737075806,0.42281490564346313,908.480224609375,36.36,,,,,,,,,,,,,,,Unknown
2026-04-03 17:19:22,3.77,-2.37,40.51,,,,,0.0,0.0,,,,,,,,,,,,40,0.0,0.01,0.25,-0.03,0,0.678,0.13,0,,False,0,,,,,,0.14205637574195862,0.18960656225681305,0.4787614047527313,908.4446411132812,36.36,,,,,,,,,,,,,,,Unknown
2026-04-03 17:19:23,3.84,-2.36,40.04,,,,,0.0,0.0,,,,,,,,,,,,39,0.0,0.01,-0.04,-0.02,0,0.678,0.12,0,,False,0,,,,,,0.10493268072605133,0.1353248506784439,0.1808691918849945,908.4752197265625,36.36,,,,,,,,,,,,,,,Unknown
2026-04-03 17:19:23,3.96,-2.21,40.12,,,,,0.0,0.0,,,,,,,,,,,,39,0.0,0.03,-0.1,-0.01,0,0.678,0.13,0,,False,0,,,,,,0.11651922017335892,0.14282967150211334,0.24218973517417908,908.4813232421875,36.36,,,,,,,,,,,,,,,Unknown
2026-04-03 17:19:23,4.43,-1.77,40.03,,,,,0.0,0.0,,,,,,,,,,,,39,0.0,0.01,-0.03,-0.02,0,0.68,0.13,0,,False,0,,,,,,0.09240274876356125,0.1464630514383316,0.16493839025497437,908.4743041992188,36.36,,,,,,,,,,,,,,,Unknown
2026-04-03 17:19:23,3.97,-2.14,40.35,,,,,0.0,0.0,,,,,,,,,,,,39,0.0,0.02,-0.04,-0.02,0,0.678,0.12,0,,False,0,,,,,,0.15714573860168457,0.20297521352767944,0.21041788160800934,908.4747314453125,36.36,,,,,,,,,,,,,,,Unknown
2026-04-03 17:19:23,3.89,-2.69,41.44,,,,,0.0,0.0,,,,,,,,,,,,41,0.0,0.02,0.1,-0.02,0,0.68,0.13,0,,False,0,,,,,,0.14165173470973969,0.35918736457824707,0.25000396370887756,908.4599609375,36.36,,,,,,,,,,,,,,,Unknown
2026-04-03 17:19:24,3.85,-2.81,42.08,,,,,0.0,0.0,,,,,,,,,,,,41,0.0,0.02,-0.02,-0.01,0,0.68,0.13,0,,False,0,,,,,,0.1219736635684967,0.16191457211971283,0.1267697960138321,908.4727783203125,36.36,,,,,,,,,,,,,,,Unknown
2026-04-03 17:19:24,3.97,-3.1,43.36,,,,,0.0,0.0,,,,,,,,,,,,42,0.0,0.04,-0.14,-0.01,0,0.677,0.12,0,,False,0,,,,,,0.08496908098459244,0.13610294461250305,0.12090036273002625,908.4848022460938,36.36,,,,,,,,,,,,,,,Unknown
2026-04-03 17:19:24,3.47,-3.04,45.66,,,,,0.0,0.0,,,,,,,,,,,,45,0.0,0.03,-0.03,-0.01,0,0.68,0.12,0,,False,0,,,,,,0.15119466185569763,0.11467447131872177,0.2001066505908966,908.4744873046875,36.36,,,,,,,,,,,,,,,Unknown
2026-04-03 17:19:24,3.47,-2.83,45.14,,,,,0.0,0.0,,,,,,,,,,,,44,0.0,0.01,-0.07,-0.01,0,0.68,0.13,0,,False,0,,,,,,0.23258312046527863,0.20181752741336823,0.26122424006462097,908.478759765625,36.36,,,,,,,,,,,,,,,Unknown
2026-04-03 17:19:24,3.28,-2.98,44.92,,,,,0.0,0.0,,,,,,,,,,,,44,0.0,0.02,-0.09,-0.0,0,0.678,0.13,0,,False,0,,,,,,0.1107812374830246,0.14659471809864044,0.1392263025045395,908.4802856445312,36.36,,,,,,,,,,,,,,,Unknown
2026-04-03 17:19:25,3.74,-3.64,44.01,,,,,0.0,0.0,,,,,,,,,,,,43,0.0,0.03,0.12,0.0,0,0.68,0.13,0,,False,0,,,,,,0.10569287091493607,0.11241251975297928,0.16284583508968353,908.4576416015625,36.35,,,,,,,,,,,,,,,Unknown
2026-04-03 17:19:25,4.81,-4.01,43.29,,,,,0.0,0.0,,,,,,,,,,,,42,0.0,0.02,-0.03,0.0,0,0.68,0.13,0,,False,0,,,,,,0.14580965042114258,0.08121936023235321,0.14784608781337738,908.4735717773438,36.36,,,,,,,,,,,,,,,Unknown
2026-04-03 17:19:25,5.4,-3.98,42.79,,,,,0.0,0.0,,,,,,,,,,,,42,0.0,0.02,-0.03,0.0,0,0.676,0.12,0,,False,0,,,,,,0.13745568692684174,0.17966584861278534,0.34864670038223267,908.4744873046875,36.36,,,,,,,,,,,,,,,Unknown
2026-04-03 17:19:25,5.43,-3.8,43.07,,,,,0.0,0.0,,,,,,,,,,,,42,0.0,0.01,0.07,-0.01,0,0.68,0.13,0,,False,0,,,,,,0.1338174045085907,0.14397676289081573,0.21550467610359192,908.4627075195312,36.35,,,,,,,,,,,,,,,Unknown
2026-04-03 17:19:25,3.01,-3.07,42.91,,,,,0.0,0.0,,,,,,,,,,,,42,0.0,0.05,0.01,0.0,0,0.678,0.12,0,,False,0,,,,,,0.1775379478931427,0.2729894816875458,0.3875626027584076,908.4688720703125,36.36,,,,,,,,,,,,,,,Unknown
2026-04-03 17:19:26,2.27,-1.72,42.65,,,,,0.0,0.0,,,,,,,,,,,,42,0.0,0.0,0.08,-0.0,0,0.68,0.12,0,,False,0,,,,,,0.2026238888502121,0.16254273056983948,0.30817991495132446,908.4618530273438,36.35,,,,,,,,,,,,,,,Unknown
2026-04-03 17:19:26,2.42,-1.29,42.83,,,,,0.0,0.0,,,,,,,,,,,,42,0.0,0.01,-0.1,0.0,0,0.682,0.13,0,,False,0,,,,,,0.1005619615316391,0.09607354551553726,0.1420331597328186,908.4805908203125,36.35,,,,,,,,,,,,,,,Unknown
2026-04-03 17:19:26,2.81,-1.26,42.89,,,,,0.0,0.0,,,,,,,,,,,,42,0.0,0.01,0.03,0.0,0,0.68,0.12,0,,False,0,,,,,,0.08984560519456863,0.10042073577642441,0.11030450463294983,908.467041015625,36.35,,,,,,,,,,,,,,,Unknown
2026-04-03 17:19:26,2.64,-0.89,42.98,,,,,0.0,0.0,,,,,,,,,,,,42,0.0,0.01,-0.16,0.0,0,0.677,0.13,0,,False,0,,,,,,0.05878432095050812,0.07941939681768417,0.08368086069822311,908.4867553710938,36.35,,,,,,,,,,,,,,,Unknown
2026-04-03 17:19:26,2.84,-0.98,42.93,,,,,0.0,0.0,,,,,,,,,,,,42,0.0,0.01,-0.18,0.0,0,0.68,0.12,0,,False,0,,,,,,0.037860967218875885,0.0512358620762825,0.06176310405135155,908.489501953125,36.35,,,,,,,,,,,,,,,Unknown
2026-04-03 17:19:27,2.78,-0.92,42.89,,,,,0.0,0.0,,,,,,,,,,,,42,0.0,0.02,-0.03,0.0,0,0.68,0.13,0,,False,0,,,,,,0.06284462660551071,0.1430605798959732,0.058501459658145905,908.4740600585938,36.35,,,,,,,,,,,,,,,Unknown
2026-04-03 17:19:27,2.71,-0.76,42.93,,,,,0.0,0.0,,,,,,,,,,,,42,0.0,0.01,-0.14,0.0,0,0.68,0.12,0,,False,0,,,,,,0.05163155123591423,0.17382283508777618,0.09550447016954422,908.4848022460938,36.35,,,,,,,,,,,,,,,Unknown
2026-04-03 17:19:27,2.85,-0.57,43.03,,,,,0.0,0.0,,,,,,,,,,,,42,0.0,0.01,0.03,0.0,0,0.68,0.13,0,,False,0,,,,,,0.043559156358242035,0.10739193111658096,0.062315892428159714,908.466796875,36.35,,,,,,,,,,,,,,,Unknown
2026-04-03 17:19:27,2.98,-0.15,42.93,,,,,0.0,0.0,,,,,,,,,,,,42,0.0,0.02,-0.16,0.01,0,0.677,0.13,0,,False,0,,,,,,0.2716912627220154,0.3778550922870636,0.28625473380088806,908.4874877929688,36.35,,,,,,,,,,,,,,,Unknown
2026-04-03 17:19:27,3.09,-0.08,42.95,,,,,0.0,0.0,,,,,,,,,,,,42,0.0,0.02,-0.02,0.0,0,0.682,0.13,0,,False,0,,,,,,0.17444729804992676,0.21617096662521362,0.15175624191761017,908.4732666015625,36.35,,,,,,,,,,,,,,,Unknown
2026-04-03 17:19:28,3.08,-0.07,42.98,,,,,0.0,0.0,,,,,,,,,,,,42,0.0,0.01,0.11,0.0,0,0.678,0.13,0,,False,0,,,,,,0.08079862594604492,0.10796383768320084,0.07642228901386261,908.4585571289062,36.35,,,,,,,,,,,,,,,Unknown
2026-04-03 17:19:28,2.95,-0.06,42.9,,,,,0.0,0.0,,,,,,,,,,,,42,0.0,0.01,-0.05,0.0,0,0.682,0.13,0,,False,0,,,,,,0.040117330849170685,0.08902441710233688,0.07374496012926102,908.476318359375,36.35,,,,,,,,,,,,,,,Unknown
2026-04-03 17:19:28,2.94,-0.06,42.87,,,,,0.0,0.0,,,,,,,,,,,,42,0.0,0.01,-0.15,0.0,0,0.68,0.13,0,,False,0,,,,,,0.032308872789144516,0.13627830147743225,0.09920787811279297,908.4862060546875,36.35,,,,,,,,,,,,,,,Unknown
2026-04-03 17:19:28,2.89,-0.07,42.86,,,,,0.0,0.0,,,,,,,,,,,,42,0.0,0.01,-0.06,-0.0,0,0.678,0.13,0,,False,0,,,,,,0.047103121876716614,0.17954391241073608,0.06061489135026932,908.4768676757812,36.35,,,,,,,,,,,,,,,Unknown
2026-04-03 17:19:28,2.93,-0.07,42.94,,,,,0.0,0.0,,,,,,,,,,,,42,0.0,0.02,-0.19,-0.0,0,0.68,0.12,0,,False,0,,,,,,0.05353321135044098,0.16073676943778992,0.0635034590959549,908.490478515625,36.35,,,,,,,,,,,,,,,Unknown
2026-04-03 17:19:29,3.07,-0.17,42.89,,,,,0.0,0.0,,,,,,,,,,,,42,0.0,0.02,-0.15,-0.0,0,0.68,0.13,0,,False,0,,,,,,0.06458128243684769,0.11674921959638596,0.09867025166749954,908.486328125,36.35,,,,,,,,,,,,,,,Unknown
2026-04-03 17:19:29,3.08,-0.15,42.39,,,,,0.0,0.0,,,,,,,,,,,,42,0.0,0.01,-0.04,-0.0,0,0.68,0.13,0,,False,0,,,,,,0.076957568526268,0.07454738765954971,0.08089743554592133,908.4749755859375,36.35,,,,,,,,,,,,,,,Unknown
2026-04-03 17:19:29,3.34,-0.33,40.38,,,,,0.0,0.0,,,,,,,,,,,,40,0.0,0.04,-0.11,-0.0,0,0.68,0.13,0,,False,0,,,,,,0.17497725784778595,0.11516456305980682,0.17956042289733887,908.4819946289062,36.35,,,,,,,,,,,,,,,Unknown
2026-04-03 17:19:29,3.43,-0.4,38.84,,,,,0.0,0.0,,,,,,,,,,,,38,0.0,0.01,-0.11,-0.0,0,0.682,0.12,0,,False,0,,,,,,0.09856735169887543,0.12352502346038818,0.15820418298244476,908.4819946289062,36.35,,,,,,,,,,,,,,,Unknown
2026-04-03 17:19:29,3.25,-0.27,39.26,,,,,0.0,0.0,,,,,,,,,,,,38,0.0,0.01,-0.2,0.0,0,0.68,0.12,0,,False,0,,,,,,0.08388752490282059,0.09954217821359634,0.12478990107774734,908.4909057617188,36.35,,,,,,,,,,,,,,,Unknown
2026-04-03 17:19:30,3.08,-0.21,40.3,,,,,0.0,0.0,,,,,,,,,,,,39,0.0,0.01,-0.12,-0.0,0,0.678,0.13,0,,False,0,,,,,,0.10921990871429443,0.15903164446353912,0.07920867949724197,908.483642578125,36.34,,,,,,,,,,,,,,,Unknown
2026-04-03 17:19:30,3.01,-0.11,39.98,,,,,0.0,0.0,,,,,,,,,,,,39,0.0,0.01,-0.19,-0.0,0,0.682,0.13,0,,False,0,,,,,,0.11612682044506073,0.09267556667327881,0.08713841438293457,908.4895629882812,36.35,,,,,,,,,,,,,,,Unknown
2026-04-03 17:19:30,2.96,-0.05,40.04,,,,,0.0,0.0,,,,,,,,,,,,39,0.0,0.0,-0.03,0.0,0,0.68,0.12,0,,False,0,,,,,,0.051942478865385056,0.07838577032089233,0.06207812577486038,908.4736328125,36.34,,,,,,,,,,,,,,,Unknown
2026-04-03 17:19:30,2.96,-0.03,40.05,,,,,0.0,0.0,,,,,,,,,,,,39,0.0,0.0,-0.33,0.0,0,0.678,0.13,0,,False,0,,,,,,0.045632194727659225,0.045786913484334946,0.0395156629383564,908.504150390625,36.34,,,,,,,,,,,,,,,Unknown
2026-04-03 17:19:30,2.97,-0.02,40.05,,,,,0.0,0.0,,,,,,,,,,,,39,0.0,0.0,0.0,-0.0,0,0.68,0.12,0,,False,0,,,,,,0.03663591295480728,0.03679320588707924,0.06866937130689621,908.4700317382812,36.34,,,,,,,,,,,,,,,Unknown
2026-04-03 17:19:31,2.98,-0.01,40.06,,,,,0.0,0.0,,,,,,,,,,,,39,0.0,0.0,-0.19,0.0,0,0.678,0.12,0,,False,0,,,,,,0.031743817031383514,0.05017714574933052,0.050081949681043625,908.4905395507812,36.34,,,,,,,,,,,,,,,Unknown
2026-04-03 17:19:31,2.98,-0.01,40.07,,,,,0.0,0.0,,,,,,,,,,,,39,0.0,0.0,-0.19,0.0,0,0.682,0.13,0,,False,0,,,,,,0.031088760122656822,0.04110898822546005,0.041040144860744476,908.4895629882812,36.34,,,,,,,,,,,,,,,Unknown
2026-04-03 17:19:31,2.98,-0.01,40.08,,,,,0.0,0.0,,,,,,,,,,,,39,0.0,0.0,-0.13,0.0,0,0.682,0.13,0,,False,0,,,,,,0.03780823573470116,0.03759429231286049,0.04891054704785347,908.4841918945312,36.34,,,,,,,,,,,,,,,Unknown
2026-04-03 17:19:31,2.99,-0.01,40.08,,,,,0.0,0.0,,,,,,,,,,,,39,0.0,0.0,-0.09,0.0,0,0.682,0.13,0,,False,0,,,,,,0.03151595592498779,0.043532971292734146,0.0409771166741848,908.4794921875,36.34,,,,,,,,,,,,,,,Unknown
2026-04-03 17:19:31,2.99,-0.02,40.09,,,,,0.0,0.0,,,,,,,,,,,,39,0.0,0.01,-0.19,0.0,0,0.68,0.13,0,,False,0,,,,,,0.026593780145049095,0.02755405753850937,0.0337342731654644,908.4895629882812,36.34,,,,,,,,,,,,,,,Unknown
2026-04-03 17:19:32,2.99,-0.03,40.09,,,,,0.0,0.0,,,,,,,,,,,,39,0.0,0.0,0.03,0.0,0,0.68,0.13,0,,False,0,,,,,,0.026251455768942833,0.0257358830422163,0.03130309283733368,908.4664916992188,36.34,,,,,,,,,,,,,,,Unknown
2026-04-03 17:19:32,2.99,-0.03,40.1,,,,,0.0,0.0,,,,,,,,,,,,39,0.0,0.01,0.13,0.0,0,0.678,0.13,0,,False,0,,,,,,0.024817226454615593,0.028299279510974884,0.03277184069156647,908.4571533203125,36.34,,,,,,,,,,,,,,,Unknown
2026-04-03 17:19:32,3.0,-0.02,40.11,,,,,0.0,0.0,,,,,,,,,,,,39,0.0,0.01,-0.1,0.01,0,0.682,0.12,0,,False,0,,,,,,0.02555578015744686,0.026588939130306244,0.03794064000248909,908.4808349609375,36.34,,,,,,,,,,,,,,,Unknown
2026-04-03 17:19:32,2.99,-0.03,40.12,,,,,0.0,0.0,,,,,,,,,,,,39,0.0,0.01,0.03,0.01,0,0.68,0.13,0,,False,0,,,,,,0.03272269666194916,0.07454730570316315,0.06597211211919785,908.4666137695312,36.34,,,,,,,,,,,,,,,Unknown
2026-04-03 17:19:32,2.99,-0.03,40.12,,,,,0.0,0.0,,,,,,,,,,,,39,0.0,0.01,-0.02,0.01,0,0.68,0.12,0,,False,0,,,,,,0.03163198381662369,0.04507945850491524,0.04334937408566475,908.47265625,36.34,,,,,,,,,,,,,,,Unknown
2026-04-03 17:19:33,3.0,-0.04,40.13,,,,,0.0,0.0,,,,,,,,,,,,39,0.0,0.0,-0.17,0.01,0,0.682,0.13,0,,False,0,,,,,,0.024624107405543327,0.030375700443983078,0.03626974672079086,908.4878540039062,36.34,,,,,,,,,,,,,,,Unknown
2026-04-03 17:19:33,3.0,-0.04,40.15,,,,,0.0,0.0,,,,,,,,,,,,39,0.0,0.0,-0.02,0.01,0,0.677,0.13,0,,False,0,,,,,,0.01991104893386364,0.023436717689037323,0.03402751684188843,908.472900390625,36.33,,,,,,,,,,,,,,,Unknown
2026-04-03 17:19:33,3.0,-0.04,40.16,,,,,0.0,0.0,,,,,,,,,,,,39,0.0,0.0,-0.23,0.01,0,0.682,0.13,0,,False,0,,,,,,0.13459666073322296,0.06979414820671082,0.10669387131929398,908.4938354492188,36.34,,,,,,,,,,,,,,,Unknown
2026-04-03 17:19:33,3.0,-0.03,40.16,,,,,0.0,0.0,,,,,,,,,,,,39,0.0,0.0,-0.01,0.01,0,0.683,0.13,0,,False,0,,,,,,0.08725344389677048,0.1536874920129776,0.07290354371070862,908.4722290039062,36.33,,,,,,,,,,,,,,,Unknown
2026-04-03 17:19:33,3.02,-0.06,40.19,,,,,0.0,0.0,,,,,,,,,,,,39,0.0,0.0,-0.15,0.01,0,0.68,0.13,0,,False,0,,,,,,0.11287382245063782,0.11444796621799469,0.09001260250806808,908.486328125,36.33,,,,,,,,,,,,,,,Unknown
2026-04-03 17:19:34,3.05,-0.05,40.22,,,,,0.0,0.0,,,,,,,,,,,,39,0.0,0.01,-0.21,0.01,0,0.68,0.13,0,,False,0,,,,,,0.12133908271789551,0.14542460441589355,0.15841951966285706,908.4920043945312,36.33,,,,,,,,,,,,,,,Unknown
2026-04-03 17:19:34,3.04,-0.04,40.2,,,,,0.0,0.0,,,,,,,,,,,,39,0.0,0.0,0.01,0.01,0,0.682,0.13,0,,False,0,,,,,,0.10097669810056686,0.1500803679227829,0.09757156670093536,908.4694213867188,36.33,,,,,,,,,,,,,,,Unknown
2026-04-03 17:19:34,3.05,-0.04,40.25,,,,,0.0,0.0,,,,,,,,,,,,39,0.0,0.01,-0.24,0.01,0,0.68,0.13,0,,False,0,,,,,,0.0824388787150383,0.14558753371238708,0.07336430251598358,908.4947509765625,36.33,,,,,,,,,,,,,,,Unknown
2026-04-03 17:19:34,3.05,-0.04,40.2,,,,,0.0,0.0,,,,,,,,,,,,39,0.0,0.01,-0.22,0.01,0,0.68,0.13,0,,False,0,,,,,,0.04988532140851021,0.1019870862364769,0.05460193380713463,908.4933471679688,36.33,,,,,,,,,,,,,,,Unknown
2026-04-03 17:19:34,3.06,-0.04,40.25,,,,,0.0,0.0,,,,,,,,,,,,39,0.0,0.01,-0.03,0.01,0,0.675,0.13,0,,False,0,,,,,,0.06554549187421799,0.11099010705947876,0.05704786628484726,908.4739379882812,36.33,,,,,,,,,,,,,,,Unknown
2026-04-03 17:19:35,3.06,-0.05,40.25,,,,,0.0,0.0,,,,,,,,,,,,39,0.0,0.01,-0.03,0.01,0,0.68,0.13,0,,False,0,,,,,,0.0644427239894867,0.07385106384754181,0.041433870792388916,908.4739379882812,36.33,,,,,,,,,,,,,,,Unknown
2026-04-03 17:19:35,3.04,-0.04,40.23,,,,,0.0,0.0,,,,,,,,,,,,39,0.0,0.01,-0.1,0.01,0,0.68,0.12,0,,False,0,,,,,,0.0613173246383667,0.10952302068471909,0.06941302120685577,908.480712890625,36.33,,,,,,,,,,,,,,,Unknown
2026-04-03 17:19:35,3.06,-0.04,40.22,,,,,0.0,0.0,,,,,,,,,,,,39,0.0,0.01,-0.15,0.01,0,0.68,0.13,0,,False,0,,,,,,0.060750965029001236,0.09077618271112442,0.09709910303354263,908.486572265625,36.33,,,,,,,,,,,,,,,Unknown
2026-04-03 17:19:35,3.07,-0.05,40.25,,,,,0.0,0.0,,,,,,,,,,,,39,0.0,0.01,-0.25,0.01,0,0.68,0.13,0,,False,0,,,,,,0.05800897628068924,0.06725741922855377,0.05258495360612869,908.4961547851562,36.33,,,,,,,,,,,,,,,Unknown
2026-04-03 17:19:35,3.07,-0.05,40.24,,,,,0.0,0.0,,,,,,,,,,,,39,0.0,0.01,-0.06,0.01,0,0.68,0.13,0,,False,0,,,,,,0.14680397510528564,0.12843747437000275,0.11212378740310669,908.4768676757812,36.32,,,,,,,,,,,,,,,Unknown
2026-04-03 17:19:36,3.08,-0.04,40.24,,,,,0.0,0.0,,,,,,,,,,,,39,0.0,0.01,-0.02,0.01,0,0.68,0.13,0,,False,0,,,,,,0.08501757681369781,0.08280975371599197,0.062181971967220306,908.473388671875,36.32,,,,,,,,,,,,,,,Unknown
2026-04-03 17:19:36,3.07,-0.05,40.23,,,,,0.0,0.0,,,,,,,,,,,,39,0.0,0.01,-0.06,0.01,0,0.68,0.13,0,,False,0,,,,,,0.07169298827648163,0.06925371289253235,0.07667194306850433,908.4774169921875,36.33,,,,,,,,,,,,,,,Unknown
2026-04-03 17:19:36,3.07,-0.05,40.23,,,,,0.0,0.0,,,,,,,,,,,,39,0.0,0.01,-0.14,0.01,0,0.68,0.13,0,,False,0,,,,,,0.051199574023485184,0.0628468245267868,0.049410950392484665,908.4849853515625,36.32,,,,,,,,,,,,,,,Unknown
2026-04-03 17:19:36,3.08,-0.05,40.25,,,,,0.0,0.0,,,,,,,,,,,,39,0.0,0.01,-0.13,0.01,0,0.68,0.13,0,,False,0,,,,,,0.06540824472904205,0.0800958201289177,0.06732926517724991,908.4840698242188,36.32,,,,,,,,,,,,,,,Unknown
2026-04-03 17:19:36,3.07,-0.04,40.26,,,,,0.0,0.0,,,,,,,,,,,,39,0.0,0.01,-0.14,0.01,0,0.682,0.13,0,,False,0,,,,,,0.03890575096011162,0.0864788070321083,0.05287635698914528,908.4849853515625,36.32,,,,,,,,,,,,,,,Unknown
2026-04-03 17:19:37,3.08,-0.05,40.3,,,,,0.0,0.0,,,,,,,,,,,,39,0.0,0.01,-0.11,0.01,0,0.68,0.12,0,,False,0,,,,,,0.08398113399744034,0.06418422609567642,0.06399143487215042,908.4818725585938,36.32,,,,,,,,,,,,,,,Unknown
2026-04-03 17:19:37,3.06,-0.08,40.24,,,,,0.0,0.0,,,,,,,,,,,,39,0.0,0.01,-0.07,0.0,0,0.677,0.12,0,,False,0,,,,,,0.10084345936775208,0.24299323558807373,0.09842785447835922,908.4775390625,36.32,,,,,,,,,,,,,,,Unknown
2026-04-03 17:19:37,3.08,-0.05,40.28,,,,,0.0,0.0,,,,,,,,,,,,39,0.0,0.01,-0.18,0.0,0,0.677,0.12,0,,False,0,,,,,,0.1622568517923355,0.1386931985616684,0.12116292864084244,908.4888916015625,36.32,,,,,,,,,,,,,,,Unknown
2026-04-03 17:19:37,3.07,-0.07,40.31,,,,,0.0,0.0,,,,,,,,,,,,39,0.0,0.01,0.16,0.01,0,0.678,0.13,0,,False,0,,,,,,0.08355622738599777,0.08514518290758133,0.0649409145116806,908.4541015625,36.32,,,,,,,,,,,,,,,Unknown
2026-04-03 17:19:37,3.08,-0.05,40.33,,,,,0.0,0.0,,,,,,,,,,,,39,0.0,0.01,0.04,0.01,0,0.678,0.13,0,,False,0,,,,,,0.24381573498249054,0.18691585958003998,0.2666287422180176,908.4656982421875,36.31,,,,,,,,,,,,,,,Unknown
2026-04-03 17:19:38,3.07,-0.07,40.3,,,,,0.0,0.0,,,,,,,,,,,,39,0.0,0.01,-0.18,0.01,0,0.68,0.13,0,,False,0,,,,,,0.10627346485853195,0.09847380965948105,0.09872375428676605,908.505615234375,36.31,,,,,,,,,,,,,,,Unknown
2026-04-03 17:19:38,3.09,-0.02,40.29,,,,,0.0,0.0,,,,,,,,,,,,39,0.0,0.01,-0.14,0.01,0,0.68,0.13,0,,False,0,,,,,,0.3192404508590698,0.2437961846590042,0.3426244854927063,908.4771728515625,36.31,,,,,,,,,,,,,,,Unknown
2026-04-03 17:19:38,3.08,-0.04,40.31,,,,,0.0,0.0,,,,,,,,,,,,39,0.0,0.01,0.04,0.01,0,0.68,0.13,0,,False,0,,,,,,0.20055635273456573,0.12946386635303497,0.14613491296768188,908.4953002929688,36.31,,,,,,,,,,,,,,,Unknown
2026-04-03 17:19:38,3.07,-0.03,40.28,,,,,0.0,0.0,,,,,,,,,,,,39,0.0,0.01,-0.01,0.01,0,0.678,0.13,0,,False,0,,,,,,0.13921409845352173,0.1704532653093338,0.1585235297679901,908.4811401367188,36.31,,,,,,,,,,,,,,,Unknown
2026-04-03 17:19:38,3.08,-0.03,40.31,,,,,0.0,0.0,,,,,,,,,,,,39,0.0,0.01,-0.19,0.01,0,0.68,0.12,0,,False,0,,,,,,0.195858433842659,0.10093065351247787,0.3275757133960724,908.4805297851562,36.31,,,,,,,,,,,,,,,Unknown
2026-04-03 17:19:39,3.05,-0.02,40.26,,,,,0.0,0.0,,,,,,,,,,,,39,0.0,0.01,-0.16,0.0,0,0.678,0.12,0,,False,0,,,,,,0.4863773286342621,0.34051716327667236,0.8554400205612183,908.4861450195312,36.31,,,,,,,,,,,,,,,Unknown
2026-04-03 17:19:39,3.1,0.0,40.32,,,,,0.0,0.0,,,,,,,,,,,,39,0.0,0.01,-0.22,0.01,0,0.68,0.13,0,,False,0,,,,,,0.16678088903427124,0.15918053686618805,0.3205069899559021,908.493408203125,36.31,,,,,,,,,,,,,,,Unknown
2026-04-03 17:19:39,3.09,-0.05,40.31,,,,,0.0,0.0,,,,,,,,,,,,39,0.0,0.01,-0.06,0.0,0,0.678,0.12,0,,False,0,,,,,,0.4310622215270996,0.3770134150981903,0.6401281356811523,908.4774780273438,36.3,,,,,,,,,,,,,,,Unknown
2026-04-03 17:19:39,3.08,-0.04,40.3,,,,,0.0,0.0,,,,,,,,,,,,39,0.0,0.01,-0.06,-0.0,0,0.68,0.13,0,,False,0,,,,,,0.12182577699422836,0.1752333641052246,0.12929116189479828,908.4774780273438,36.3,,,,,,,,,,,,,,,Unknown
2026-04-03 17:19:39,3.08,-0.04,40.32,,,,,0.0,0.0,,,,,,,,,,,,39,0.0,0.01,-0.07,0.0,0,0.68,0.13,0,,False,0,,,,,,0.07478971779346466,0.10424583405256271,0.07383392006158829,908.4782104492188,36.3,,,,,,,,,,,,,,,Unknown
2026-04-03 17:19:40,3.08,-0.03,40.28,,,,,0.0,0.0,,,,,,,,,,,,39,0.0,0.01,-0.14,0.0,0,0.68,0.12,0,,False,0,,,,,,0.06164749711751938,0.0700715109705925,0.04326549917459488,908.4844360351562,36.3,,,,,,,,,,,,,,,Unknown
2026-04-03 17:19:40,3.08,-0.01,40.3,,,,,0.0,0.0,,,,,,,,,,,,39,0.0,0.01,-0.25,0.0,0,0.678,0.13,0,,False,0,,,,,,0.1139724850654602,0.17556855082511902,0.12407546490430832,908.4967041015625,36.3,,,,,,,,,,,,,,,Unknown
2026-04-03 17:19:40,3.08,-0.04,40.32,,,,,0.0,0.0,,,,,,,,,,,,39,0.0,0.01,-0.06,0.0,0,0.68,0.12,0,,False,0,,,,,,0.10523057729005814,0.17351077497005463,0.08378592878580093,908.4772338867188,36.3,,,,,,,,,,,,,,,Unknown
2026-04-03 17:19:40,3.08,-0.04,40.36,,,,,0.0,0.0,,,,,,,,,,,,39,0.0,0.01,-0.07,0.0,0,0.68,0.13,0,,False,0,,,,,,0.17595134675502777,0.13090915977954865,0.15620064735412598,908.478271484375,36.3,,,,,,,,,,,,,,,Unknown
2026-04-03 17:19:40,3.08,-0.05,40.35,,,,,0.0,0.0,,,,,,,,,,,,39,0.0,0.01,0.07,0.0,0,0.682,0.12,0,,False,0,,,,,,0.14463108777999878,0.2926144301891327,0.13431286811828613,908.463134765625,36.3,,,,,,,,,,,,,,,Unknown
2026-04-03 17:19:41,3.07,-0.1,40.35,,,,,0.0,0.0,,,,,,,,,,,,39,0.0,0.01,-0.1,0.01,0,0.68,0.12,0,,False,0,,,,,,0.06115397810935974,0.1406727284193039,0.07170116156339645,908.4805297851562,36.3,,,,,,,,,,,,,,,Unknown
2026-04-03 17:19:41,3.07,-0.12,40.38,,,,,0.0,0.0,,,,,,,,,,,,39,0.0,0.01,-0.11,0.01,0,0.675,0.13,0,,False,0,,,,,,0.08429757505655289,0.13256515562534332,0.11186873912811279,908.482177734375,36.3,,,,,,,,,,,,,,,Unknown
2026-04-03 17:19:41,3.08,-0.13,40.4,,,,,0.0,0.0,,,,,,,,,,,,39,0.0,0.01,-0.16,0.0,0,0.678,0.13,0,,False,0,,,,,,0.17475035786628723,0.31425681710243225,0.11715525388717651,908.4873046875,36.3,,,,,,,,,,,,,,,Unknown
2026-04-03 17:19:41,3.07,-0.13,40.41,,,,,0.0,0.0,,,,,,,,,,,,39,0.0,0.01,-0.14,0.0,0,0.68,0.13,0,,False,0,,,,,,0.08757643401622772,0.12065859884023666,0.07871971279382706,908.4849853515625,36.3,,,,,,,,,,,,,,,Unknown
2026-04-03 17:19:41,3.06,-0.15,40.42,,,,,0.0,0.0,,,,,,,,,,,,39,0.0,0.01,-0.04,0.0,0,0.682,0.12,0,,False,0,,,,,,0.044665176421403885,0.07884420454502106,0.053052015602588654,908.4749145507812,36.3,,,,,,,,,,,,,,,Unknown
2026-04-03 17:19:42,3.01,-0.15,40.37,,,,,0.0,0.0,,,,,,,,,,,,39,0.0,0.01,-0.17,0.0,0,0.68,0.12,0,,False,0,,,,,,0.043607596307992935,0.07181847840547562,0.04437016695737839,908.488037109375,36.3,,,,,,,,,,,,,,,Unknown
2026-04-03 17:19:42,3.01,-0.13,40.24,,,,,0.0,0.0,,,,,,,,,,,,39,0.0,0.02,-0.07,0.0,0,0.682,0.13,0,,False,0,,,,,,0.1164657324552536,0.09652884304523468,0.13834485411643982,908.4786376953125,36.29,,,,,,,,,,,,,,,Unknown
2026-04-03 17:19:42,3.1,-0.06,36.93,,,,,0.0,0.0,,,,,,,,,,,,36,0.0,0.04,-0.24,0.0,0,0.68,0.13,0,,False,0,,,,,,0.23163411021232605,0.10909944027662277,0.24158626794815063,908.4948120117188,36.29,,,,,,,,,,,,,,,Unknown
2026-04-03 17:19:42,3.12,-0.01,33.79,,,,,0.0,0.0,,,,,,,,,,,,33,0.0,0.02,-0.06,-0.0,0,0.68,0.13,0,,False,0,,,,,,0.21636705100536346,0.15031443536281586,0.38938668370246887,908.4772338867188,36.29,,,,,,,,,,,,,,,Unknown
2026-04-03 17:19:42,3.15,0.01,30.82,,,,,0.0,0.0,,,,,,,,,,,,30,0.0,0.02,-0.06,0.0,0,0.682,0.13,0,,False,0,,,,,,0.10124138742685318,0.12131824344396591,0.18580487370491028,908.4765625,36.29,,,,,,,,,,,,,,,Unknown
2026-04-03 17:19:43,3.31,0.03,26.63,,,,,0.0,0.0,,,,,,,,,,,,26,0.0,0.01,-0.31,0.0,0,0.68,0.13,0,,False,0,,,,,,0.12475300580263138,0.15872055292129517,0.15948550403118134,908.5023193359375,36.29,,,,,,,,,,,,,,,Unknown
2026-04-03 17:19:43,3.42,0.05,24.67,,,,,0.0,0.0,,,,,,,,,,,,24,0.0,0.02,-0.16,-0.0,0,0.678,0.13,0,,False,0,,,,,,0.09134995192289352,0.07518117874860764,0.08066781610250473,908.4869384765625,36.29,,,,,,,,,,,,,,,Unknown
2026-04-03 17:19:43,3.55,0.08,22.35,,,,,0.0,0.0,,,,,,,,,,,,22,0.0,0.03,-0.11,-0.0,0,0.678,0.13,0,,False,0,,,,,,0.08495642989873886,0.18503358960151672,0.17049206793308258,908.481689453125,36.29,,,,,,,,,,,,,,,Unknown
2026-04-03 17:19:43,3.66,0.09,19.86,,,,,0.0,0.0,,,,,,,,,,,,19,0.0,0.05,-0.11,-0.0,0,0.678,0.12,0,,False,0,,,,,,0.07919017225503922,0.10716768354177475,0.1074637621641159,908.482666015625,36.29,,,,,,,,,,,,,,,Unknown
2026-04-03 17:19:43,3.63,0.06,20.54,,,,,0.0,0.0,,,,,,,,,,,,20,0.0,0.07,-0.11,-0.0,0,0.68,0.12,0,,False,0,,,,,,0.14481523633003235,0.09791114926338196,0.15682293474674225,908.482421875,36.29,,,,,,,,,,,,,,,Unknown
2026-04-03 17:19:44,3.25,-0.0,23.87,,,,,0.0,0.0,,,,,,,,,,,,23,0.0,0.07,-0.09,-0.0,0,0.683,0.13,0,,False,0,,,,,,0.08346372842788696,0.11529058963060379,0.1672520637512207,908.4796142578125,36.29,,,,,,,,,,,,,,,Unknown
2026-04-03 17:19:44,3.19,-0.05,27.19,,,,,0.0,0.0,,,,,,,,,,,,26,0.0,0.08,-0.2,-0.0,0,0.676,0.13,0,,False,0,,,,,,0.09999433904886246,0.13163818418979645,0.29613152146339417,908.4913330078125,36.29,,,,,,,,,,,,,,,Unknown
2026-04-03 17:19:44,3.18,-0.06,29.5,,,,,0.0,0.0,,,,,,,,,,,,29,0.0,0.08,0.09,-0.0,0,0.678,0.12,0,,False,0,,,,,,0.12836776673793793,0.09957802295684814,0.37616655230522156,908.4606323242188,36.28,,,,,,,,,,,,,,,Unknown
2026-04-03 17:19:44,3.14,-0.03,30.44,,,,,0.0,0.0,,,,,,,,,,,,30,0.0,0.08,-0.06,-0.0,0,0.678,0.13,0,,False,0,,,,,,0.14951220154762268,0.14751572906970978,0.15203335881233215,908.4769897460938,36.29,,,,,,,,,,,,,,,Unknown
2026-04-03 17:19:44,2.97,-0.09,31.52,,,,,0.0,0.0,,,,,,,,,,,,31,0.0,0.1,-0.12,0.0,0,0.68,0.12,0,,False,0,,,,,,0.16471785306930542,0.3754275441169739,0.23431643843650818,908.4830932617188,36.29,,,,,,,,,,,,,,,Unknown
2026-04-03 17:19:45,2.9,-0.13,34.16,,,,,0.0,0.0,,,,,,,,,,,,34,0.0,0.08,-0.1,-0.0,0,0.678,0.12,0,,False,0,,,,,,0.14811085164546967,0.22620312869548798,0.22499938309192657,908.481201171875,36.28,,,,,,,,,,,,,,,Unknown
2026-04-03 17:19:45,2.86,-0.17,39.79,,,,,0.0,0.0,,,,,,,,,,,,39,0.0,0.07,-0.18,0.0,0,0.68,0.12,0,,False,0,,,,,,0.1905275136232376,0.2850361764431,0.6672444939613342,908.4891967773438,36.28,,,,,,,,,,,,,,,Unknown
2026-04-03 17:19:45,2.89,-0.28,45.71,,,,,0.0,0.0,,,,,,,,,,,,45,0.0,0.06,-0.03,-0.0,0,0.678,0.12,0,,False,0,,,,,,0.14815457165241241,0.18484081327915192,0.5561133623123169,908.4737548828125,36.28,,,,,,,,,,,,,,,Unknown
2026-04-03 17:19:45,2.94,-0.33,49.48,,,,,0.0,0.0,,,,,,,,,,,,49,0.0,0.05,0.12,-0.0,0,0.676,0.12,0,,False,0,,,,,,0.09376922249794006,0.1679675430059433,0.25214698910713196,908.457275390625,36.28,,,,,,,,,,,,,,,Unknown
2026-04-03 17:19:45,2.94,-0.35,51.28,,,,,0.0,0.0,,,,,,,,,,,,51,0.0,0.03,-0.24,-0.0,0,0.682,0.13,0,,False,0,,,,,,0.16332432627677917,0.2388467937707901,0.28124746680259705,908.4956665039062,36.28,,,,,,,,,,,,,,,Unknown
2026-04-03 17:19:46,2.95,-0.33,51.49,,,,,0.0,0.0,,,,,,,,,,,,51,0.0,0.01,-0.07,-0.0,0,0.68,0.12,0,,False,0,,,,,,0.11131687462329865,0.1312861144542694,0.10153862833976746,908.47802734375,36.28,,,,,,,,,,,,,,,Unknown
2026-04-03 17:19:46,2.95,-0.32,51.5,,,,,0.0,0.0,,,,,,,,,,,,51,0.0,0.01,-0.32,-0.01,0,0.68,0.13,0,,False,0,,,,,,0.045691151171922684,0.06107184290885925,0.04273168370127678,908.5026245117188,36.28,,,,,,,,,,,,,,,Unknown
2026-04-03 17:19:46,2.93,-0.3,51.22,,,,,0.0,0.0,,,,,,,,,,,,51,0.0,0.02,-0.16,-0.01,0,0.68,0.13,0,,False,0,,,,,,0.04635925590991974,0.04063427820801735,0.05269786715507507,908.4866943359375,36.28,,,,,,,,,,,,,,,Unknown
2026-04-03 17:19:46,2.97,-0.27,49.7,,,,,0.0,0.0,,,,,,,,,,,,49,0.0,0.04,-0.23,-0.01,0,0.678,0.12,0,,False,0,,,,,,0.0719001293182373,0.061444416642189026,0.09326546639204025,908.494384765625,36.28,,,,,,,,,,,,,,,Unknown
2026-04-03 17:19:46,3.02,-0.26,48.15,,,,,0.0,0.0,,,,,,,,,,,,48,0.0,0.04,-0.05,-0.01,0,0.677,0.12,0,,False,0,,,,,,0.07025575637817383,0.08019433170557022,0.1112472265958786,908.4755859375,36.28,,,,,,,,,,,,,,,Unknown
2026-04-03 17:19:47,2.99,-0.12,43.44,,,,,0.0,0.0,,,,,,,,,,,,43,0.0,0.06,-0.12,-0.01,0,0.678,0.12,0,,False,0,,,,,,0.1586863249540329,0.2076076865196228,0.3096889555454254,908.4833984375,36.27,,,,,,,,,,,,,,,Unknown
2026-04-03 17:19:47,3.01,-0.09,40.16,,,,,0.0,0.0,,,,,,,,,,,,40,0.0,0.07,-0.22,-0.01,0,0.678,0.13,0,,False,0,,,,,,0.30884480476379395,0.4537712335586548,0.3291081488132477,908.4931640625,36.28,,,,,,,,,,,,,,,Unknown
2026-04-03 17:19:47,2.96,-0.11,39.74,,,,,0.0,0.0,,,,,,,,,,,,39,0.0,0.07,-0.33,-0.01,0,0.678,0.13,0,,False,0,,,,,,0.19978947937488556,0.2454276978969574,0.20559348165988922,908.5040283203125,36.28,,,,,,,,,,,,,,,Unknown
2026-04-03 17:19:47,2.96,-0.14,39.75,,,,,0.0,0.0,,,,,,,,,,,,39,0.0,0.07,-0.22,-0.01,0,0.68,0.13,0,,False,0,,,,,,0.09239664673805237,0.10912729054689407,0.17655803263187408,908.4930419921875,36.28,,,,,,,,,,,,,,,Unknown
2026-04-03 17:19:47,2.94,-0.16,39.77,,,,,0.0,0.0,,,,,,,,,,,,39,0.0,0.07,-0.16,-0.01,0,0.682,0.13,0,,False,0,,,,,,0.08140948414802551,0.09342125803232193,0.28160396218299866,908.4871826171875,36.27,,,,,,,,,,,,,,,Unknown
2026-04-03 17:19:48,2.94,-0.15,39.79,,,,,0.0,0.0,,,,,,,,,,,,39,0.0,0.07,-0.07,-0.01,0,0.68,0.13,0,,False,0,,,,,,0.060015544295310974,0.09246645122766495,0.22424821555614471,908.477783203125,36.27,,,,,,,,,,,,,,,Unknown
2026-04-03 17:19:48,2.93,-0.14,39.8,,,,,0.0,0.0,,,,,,,,,,,,39,0.0,0.07,-0.06,-0.01,0,0.68,0.13,0,,False,0,,,,,,0.046474698930978775,0.06518702208995819,0.18457812070846558,908.4771118164062,36.27,,,,,,,,,,,,,,,Unknown
2026-04-03 17:19:48,2.93,-0.15,39.81,,,,,0.0,0.0,,,,,,,,,,,,39,0.0,0.07,-0.06,-0.01,0,0.682,0.12,0,,False,0,,,,,,0.03131311759352684,0.041840896010398865,0.07709889858961105,908.4772338867188,36.27,,,,,,,,,,,,,,,Unknown
2026-04-03 17:19:48,2.93,-0.16,39.83,,,,,0.0,0.0,,,,,,,,,,,,39,0.0,0.07,-0.12,-0.01,0,0.68,0.13,0,,False,0,,,,,,0.027696622535586357,0.03498469293117523,0.035380564630031586,908.4833984375,36.28,,,,,,,,,,,,,,,Unknown
2026-04-03 17:19:48,2.96,-0.16,39.85,,,,,0.0,0.0,,,,,,,,,,,,39,0.0,0.07,-0.29,-0.01,0,0.68,0.12,0,,False,0,,,,,,0.023512182757258415,0.028566701337695122,0.032183099538087845,908.5005493164062,36.27,,,,,,,,,,,,,,,Unknown
2026-04-03 17:19:49,2.96,-0.16,39.86,,,,,0.0,0.0,,,,,,,,,,,,39,0.0,0.06,-0.03,-0.01,0,0.68,0.12,0,,False,0,,,,,,0.02410982735455036,0.021930286660790443,0.03762902691960335,908.4741821289062,36.27,,,,,,,,,,,,,,,Unknown
2026-04-03 17:19:49,2.95,-0.13,39.84,,,,,0.0,0.0,,,,,,,,,,,,39,0.0,0.06,-0.27,-0.01,0,0.68,0.13,0,,False,0,,,,,,0.026255395263433456,0.031908199191093445,0.04900696873664856,908.498291015625,36.27,,,,,,,,,,,,,,,Unknown
2026-04-03 17:19:49,2.95,-0.12,39.84,,,,,0.0,0.0,,,,,,,,,,,,39,0.0,0.06,-0.24,-0.02,0,0.68,0.13,0,,False,0,,,,,,0.03881344571709633,0.05792975798249245,0.06190744787454605,908.49560546875,36.27,,,,,,,,,,,,,,,Unknown
